,City,Cloudiness,Country,Date,Humidity,Lat,Lng,Max Temp,Wind Speed
0,Byron Bay,75,AU,1570317878,64,-28.65,153.62,297.04,1.5
1,Rikitea,100,PF,1570317880,79,-23.12,-134.97,294.923,9.36
2,Faanui,60,PF,1570317881,74,-16.48,-151.75,299.583,5.29
3,Sinnamary,0,GF,1570317882,79,5.38,-52.96,300.843,5.96
4,Avarua,100,CK,1570317862,49,-21.21,-159.78,296.15,3.1
5,Punta Arenas,75,CL,1570317885,65,-53.16,-70.91,281.15,4.1
6,Pevek,100,RU,1570317886,81,69.7,170.27,271.123,8.24
7,Walvis Bay,0,NA,1570317660,87,-22.95,14.51,285.15,3.1
8,Nikolskoye,0,RU,1570317692,92,59.7,30.79,273.71,2.0
9,Paamiut,100,GL,1570317680,87,61.99,-49.67,277.233,15.6
10,Bamako,20,ML,1570317891,88,12.65,-8.0,299.15,1.0
11,Grand Gaube,75,MU,1570317630,94,-20.01,57.66,295.37,2.6
12,Clyde River,20,CA,1570317894,63,70.47,-68.59,270.15,3.1
13,Keflavik,20,IS,1570317896,93,64.0,-22.56,282.15,5.1
14,Albany,1,US,1570317789,61,42.65,-73.75,283.15,2.1
15,San Clemente,1,US,1570317687,44,33.43,-117.61,304.82,4.6
16,Safford,1,US,1570317899,18,32.83,-109.71,306.15,3.1
17,Merrill,1,US,1570317607,29,42.03,-121.6,289.82,2.1
18,Ushuaia,85,AR,1570317902,64,-54.81,-68.31,277.15,7.2
19,Tura,81,RU,1570317903,84,64.27,100.22,272.203,5.27
20,Porbandar,0,IN,1570317905,73,21.64,69.61,300.863,4.723
21,Ponta do Sol,22,BR,1570317906,53,-20.63,-46.0,296.653,5.44
22,Barrow,3,AR,1570317907,91,-38.31,-60.23,278.533,2.69
23,Busselton,89,AU,1570317909,67,-33.64,115.35,285.37,2.83
24,Ust-Omchug,37,RU,1570317910,88,61.13,149.63,261.243,1.46
25,Boulder,1,US,1570317912,20,40.02,-105.27,294.15,3.1
26,Husavik,100,CA,1570317913,90,50.56,-96.99,280.37,2.24
27,Touros,20,BR,1570317915,83,-5.2,-35.46,297.15,4.1
28,Arraial do Cabo,0,BR,1570317545,78,-22.97,-42.02,297.15,9.3
29,Hithadhoo,100,MV,1570317917,71,-0.6,73.08,300.783,2.084
30,Bud,0,NO,1570317553,54,62.91,6.91,276.15,3.1
31,Lebu,75,ET,1570317920,77,8.96,38.73,288.15,2.1
32,Seydi,100,NE,1570317921,65,13.34,7.75,299.403,0.93
33,Bluff,0,AU,1570317923,40,-23.58,149.07,298.203,1.3
34,Tasiilaq,100,GL,1570317924,70,65.61,-37.64,279.15,11.8
35,Puerto Ayora,0,EC,1570317925,73,-0.74,-90.35,295.15,10.3
36,Payo,98,ID,1570317927,56,-3.75,103.64,292.983,1.79
37,Carnarvon,0,ZA,1570317557,11,-30.97,22.13,290.933,3.69
38,Mar del Plata,71,AR,1570317689,37,-46.43,-67.52,284.453,2.53
39,Alice Springs,0,AU,1570317573,9,-23.7,133.88,302.15,5.1
40,Vaini,90,IN,1570317932,94,15.34,74.49,296.403,0.74
41,Esperance,90,AU,1570317539,87,-33.86,121.89,285.15,0.5
42,Cape Town,14,ZA,1570317935,81,-33.93,18.42,288.15,2.1
43,Landau,0,DE,1570317936,87,51.34,9.08,280.15,2.1
44,Hobart,75,AU,1570317661,67,-42.88,147.33,288.71,3.6
45,Ribeira Grande,74,PT,1570317938,94,38.52,-28.7,294.243,7.144
46,Emerald,0,AU,1570317940,33,-23.53,148.16,299.26,2.6
47,Thinadhoo,96,MV,1570317941,73,0.53,72.93,300.813,3.32
48,Dikson,8,RU,1570317700,73,73.51,80.55,268.083,5.886
49,Vila Velha,75,BR,1570317944,69,-3.71,-38.6,300.15,5.1
50,Bredasdorp,38,ZA,1570317945,72,-34.53,20.04,288.15,2.1
51,New Norfolk,75,AU,1570317946,67,-42.78,147.06,288.71,3.6
52,Kosonsoy,99,UZ,1570317948,72,41.25,71.55,288.15,2.1
53,Jamestown,0,AU,1570317949,45,-33.21,138.6,292.053,6.157
54,Yellowknife,75,CA,1570317453,80,62.45,-114.38,278.15,3.1
55,Machaneng,8,BW,1570317952,29,-23.19,27.49,294.923,4.22
56,Matagami,98,NG,1570317580,93,9.67,8.4,293.723,1.416
57,Hermanus,65,ZA,1570317954,85,-34.42,19.24,287.04,5.24
58,Ponferrada,33,ES,1570317702,99,42.55,-6.59,284.26,0.73
59,Reo,88,BF,1570317957,58,12.32,-2.47,300.033,4.61
60,Port Elizabeth,75,US,1570317958,62,39.31,-74.98,289.15,2.6
61,Yumen,83,CN,1570317960,33,40.29,97.04,280.183,4.75
62,Nueva Loja,0,EC,1570317961,70,0.08,-76.88,302.15,1.5
63,Cidreira,100,BR,1570317962,89,-30.17,-50.22,288.623,3.13
64,Atuona,14,PF,1570317963,73,-9.8,-139.03,300.013,7.95
65,Fallon,40,US,1570317965,37,46.84,-105.12,286.48,10.3
66,Visnes,1,NO,1570317966,80,59.36,5.22,282.04,3.6
67,Lorengau,7,PG,1570317968,65,-2.02,147.27,302.423,1.88
68,General Roca,0,AR,1570317969,29,-39.03,-67.58,289.15,1.0
69,Bethel,75,US,1570317970,80,60.79,-161.76,279.15,6.7
70,Kapaa,90,US,1570317972,69,22.08,-159.32,304.15,6.7
71,Longyearbyen,75,NO,1570317973,74,78.22,15.63,276.15,10.3
72,Mayo,75,CA,1570317974,64,63.59,-135.9,276.15,2.6
73,Broomall,1,US,1570317976,66,39.98,-75.36,287.15,2.1
74,Labuhan,10,ID,1570317977,66,-2.54,115.51,300.553,0.14
75,Castro,90,CL,1570317979,76,-42.48,-73.76,282.15,4.1
76,Hibbing,90,US,1570317980,93,47.43,-92.94,283.15,3.6
77,Saldanha,50,PT,1570317981,70,41.42,-6.55,286.903,1.95
78,Beringovskiy,0,RU,1570317983,43,63.05,179.32,273.063,8.45
79,Chuy,100,UY,1570317984,81,-33.69,-53.46,284.933,4.36
80,Mahebourg,75,MU,1570317645,94,-20.41,57.7,295.37,2.6
81,Narsaq,33,GL,1570317653,45,60.91,-46.05,282.15,2.1
82,Thompson,90,CA,1570317988,100,55.74,-97.86,279.15,1.0
83,Ichhawar,100,IN,1570317990,85,23.03,77.02,295.753,1.628
84,Rovaniemi,90,FI,1570317840,93,66.5,25.72,275.15,2.6
85,Kruisfontein,0,ZA,1570317992,90,-34.0,24.73,287.533,6.05
86,Ilulissat,55,GL,1570317994,86,69.22,-51.1,276.15,3.6
87,Aras,9,ES,1570317995,82,42.56,-2.36,288.15,2.1
88,Cabimas,100,VE,1570317996,68,10.39,-71.44,301.093,0.55
89,East London,0,ZA,1570317870,57,-33.02,27.91,290.633,1.56
90,Puerto Quijarro,90,BO,1570317999,83,-19.0,-57.72,294.15,7.2
91,Panchgani,49,IN,1570318000,91,17.92,73.8,295.423,0.78
92,Cherskiy,90,RU,1570318002,85,68.75,161.3,266.173,4.876
93,Kupang,20,ID,1570318003,54,-10.16,123.6,299.15,2.1
94,Mataura,90,NZ,1570318005,68,-46.19,168.86,284.82,3.58
95,Gospic,20,HR,1570318006,93,44.55,15.37,285.15,2.1
96,Poum,22,MK,1570317560,91,41.28,20.71,279.183,0.31
97,Erzin,40,TR,1570318009,73,36.95,36.2,297.04,3.1
98,San Vicente,20,EC,1570318010,83,-0.59,-80.41,297.15,5.1
99,Hasaki,75,JP,1570318011,88,35.73,140.83,294.15,5.1
100,Luwuk,47,ID,1570318013,92,-0.95,122.79,292.453,1.72
101,Isangel,75,VU,1570317559,69,-19.55,169.27,299.15,2.6
102,Dubrovnik,0,HR,1570318016,67,42.65,18.09,288.15,4.1
103,Ternovka,100,RU,1570318017,94,51.69,41.59,286.053,5.55
104,Changji,100,CN,1570318018,71,32.07,116.17,289.293,4.12
105,Itarema,30,BR,1570318020,71,-2.92,-39.92,298.063,5.04
106,Tiksi,95,RU,1570318021,80,71.64,128.87,266.153,2.259
107,Codrington,67,AU,1570318022,60,-28.95,153.24,295.93,2.6
108,Baymak,62,RU,1570318023,46,52.6,58.31,277.253,1.87
109,Maceio,40,BR,1570317982,83,-9.67,-35.74,296.15,5.1
110,Khandyga,0,RU,1570317221,53,62.65,135.58,267.043,2.88
111,Bagdarin,50,RU,1570318027,58,54.44,113.59,273.223,5.91
112,Kathu,0,ZA,1570318029,31,-27.7,23.05,292.59,3.79
113,Provideniya,100,RU,1570318030,79,64.42,-173.23,274.123,4.086
114,Georgetown,40,GY,1570317888,78,6.8,-58.16,301.15,3.1
115,Ilheus,40,BR,1570317748,78,-14.79,-39.05,299.15,4.6
116,Medicine Hat,40,CA,1570318034,35,50.04,-110.68,287.15,6.2
117,Qaanaaq,100,GL,1570318036,72,77.48,-69.36,268.123,2.02
118,Sitka,0,US,1570318037,40,37.17,-99.65,294.82,4.92
119,Bondo,84,CD,1570318038,98,3.81,23.69,293.593,0.41
120,Sao Filipe,8,CV,1570318040,81,14.9,-24.5,298.523,5.56
121,Prince Rupert,1,CA,1570318041,81,54.32,-130.32,285.15,2.6
122,Kankakee,90,US,1570318043,72,41.12,-87.86,290.37,6.1
123,Ponta Delgada,75,PT,1570318044,100,37.73,-25.67,297.04,3.6
124,Nautla,9,MX,1570318045,72,20.22,-96.78,301.243,4.29
125,Khatanga,0,RU,1570318047,89,71.98,102.47,264.873,3.12
126,Lagoa,0,PT,1570318018,68,37.14,-8.45,292.15,3.6
127,Price,1,US,1570318050,9,39.6,-110.81,291.15,2.6
128,Butaritari,37,KI,1570318051,63,3.07,172.79,302.613,2.22
129,Bilma,0,NE,1570318052,15,18.69,12.92,304.803,3.848
130,Riyadh,0,SA,1570317657,32,24.63,46.72,301.15,1.5
131,Buala,4,SB,1570318055,68,-8.15,159.59,302.063,1.57
132,Tuktoyaktuk,90,CA,1570318056,93,69.44,-133.03,275.15,9.8
133,Ridgetown,1,CA,1570318058,76,42.44,-81.88,287.59,4.6
134,San Patricio,100,PY,1570318059,96,-26.98,-56.83,288.773,3.17
135,Milkovo,75,BG,1570317603,87,41.53,24.68,289.82,2.1
136,Fairbanks,90,US,1570317513,86,64.84,-147.72,274.15,4.1
137,Tokur,37,RU,1570318063,59,53.13,132.9,276.503,1.048
138,Souillac,90,FR,1570318064,87,45.6,-0.6,290.37,0.5
139,Kaitangata,84,NZ,1570318065,56,-46.28,169.85,285.37,4.02
140,Mitsamiouli,0,KM,1570318067,81,-11.38,43.28,298.963,0.64
141,Fayaoue,87,NC,1570318068,79,-20.65,166.53,295.543,6.09
142,Tual,19,ID,1570318069,81,-5.67,132.75,299.493,8.09
143,Kozhva,80,RU,1570318071,89,65.11,57.05,272.433,3.0
144,Saint-Augustin,20,CA,1570318072,70,45.63,-73.98,283.15,2.1
145,Pulandian,0,CN,1570318073,61,39.4,121.96,282.15,1.0
146,Saint-Francois,96,FR,1570317629,94,46.42,3.91,285.37,1.51
147,Biharamulo,65,TZ,1570318077,88,-2.64,31.31,290.483,0.51
148,Abu Dhabi,0,AE,1570317812,66,24.47,54.37,303.15,1.5
149,Fort Nelson,75,CA,1570317679,41,58.81,-122.69,287.15,7.2
150,Laguna,75,BZ,1570318080,74,16.17,-88.94,302.15,2.1
151,Canutama,44,BR,1570318082,66,-6.53,-64.38,298.413,1.01
152,Port Alfred,0,ZA,1570318083,94,-33.59,26.89,288.71,2.154
153,Paita,0,PE,1570318084,290,-5.09,-81.11,290.15,8.7
154,Ondjiva,2,AO,1570318086,41,-17.07,15.73,294.463,1.9
155,Acari,42,BR,1570318087,68,-6.44,-36.64,297.093,11.2
156,Vostok,0,RU,1570318089,45,46.45,135.83,279.473,2.231
157,Pisco,40,PE,1570318090,30,-13.71,-76.2,295.15,7.2
158,Rawson,84,AR,1570317586,35,-43.3,-65.11,285.963,4.35
159,Leningradskiy,100,RU,1570318093,96,69.38,178.42,274.773,14.135
160,Portland,20,US,1570317591,66,43.66,-70.25,284.15,3.1
161,Manokwari,96,ID,1570318096,69,-0.87,134.08,299.373,1.21
162,Imeni Zhelyabova,12,RU,1570318097,96,58.95,36.6,271.773,1.44
163,Saint George,20,GR,1570318098,76,39.45,22.34,291.15,2.1
164,Port Saint Lucie,40,US,1570318100,69,27.29,-80.35,301.48,6.2
165,Boa Vista,0,BR,1570317679,58,2.82,-60.67,303.15,2.6
166,Mehamn,100,NO,1570318102,78,71.03,27.85,277.863,7.81
167,Grindavik,20,IS,1570318104,93,63.84,-22.43,282.15,5.1
168,Kikwit,49,CD,1570318105,91,-5.04,18.82,295.353,1.01
169,Jimma,100,ET,1570318106,99,7.67,36.84,287.193,0.87
170,Poykovskiy,0,RU,1570318108,87,61.23,73.33,284.15,4.0
171,Santo Antonio do Ica,86,BR,1570318109,73,-3.1,-67.94,299.293,0.82
172,Samarai,94,PG,1570318110,92,-10.62,150.67,298.543,3.35
173,Kichera,80,RU,1570318112,76,55.93,110.1,270.273,1.59
174,Coihaique,75,CL,1570317563,57,-45.58,-72.07,282.15,1.5
175,Tivoli,20,IT,1570318115,72,41.96,12.8,291.15,2.1
176,Menfi,20,IT,1570318116,73,37.61,12.97,296.48,8.2
177,Canterbury,52,GB,1570318024,93,51.28,1.08,287.15,4.6
178,Upernavik,100,GL,1570318119,98,72.79,-56.15,273.693,2.61
179,Puerto del Rosario,75,ES,1570318120,78,28.5,-13.86,296.15,9.8
180,Lingyuan,100,CN,1570318122,36,41.24,119.4,283.003,2.18
181,Martapura,34,ID,1570318123,73,-3.41,114.85,300.303,2.56
182,Sept-Iles,20,CA,1570318125,52,50.2,-66.38,281.48,4.1
183,Valkeakoski,0,FI,1570318126,92,61.26,24.03,272.59,2.12
184,Hamilton,75,CA,1570317629,87,43.26,-79.87,286.48,5.7
185,Octeville,75,FR,1570318129,93,49.63,-1.64,288.71,3.6
186,Kununurra,1,AU,1570318130,65,-15.77,128.74,300.15,2.1
187,Mareeba,90,AU,1570317700,53,-16.99,145.42,298.71,7.7
188,Saint-Philippe,1,CA,1570318132,61,45.36,-73.48,283.15,1.5
189,Pundaguitan,55,PH,1570318134,69,6.37,126.17,301.473,2.57
190,Karratha,0,AU,1570318135,10,-20.74,116.85,307.113,5.03
191,Yanam,83,IN,1570318137,94,16.73,82.22,297.313,1.9
192,Bathsheba,20,BB,1570318138,78,13.22,-59.52,301.15,5.1
193,Coahuayana,12,MX,1570318139,82,18.62,-100.35,298.653,0.75
194,Kavieng,14,PG,1570318141,68,-2.57,150.8,301.993,2.69
195,Peniche,20,PT,1570318142,77,39.36,-9.38,290.15,5.7
196,Salinopolis,2,BR,1570318143,79,-0.61,-47.36,300.703,6.95
197,Sakskobing,33,DK,1570318145,93,54.8,11.63,280.37,0.45
198,Sao Joao da Barra,0,BR,1570318146,82,-21.64,-41.05,294.323,0.78
199,Shimoda,75,JP,1570317562,83,34.7,138.93,299.26,5.7
200,Kargasok,89,RU,1570317915,97,59.06,80.87,281.193,2.48
201,Meulaboh,54,ID,1570317556,85,4.14,96.13,298.493,4.27
202,Vagur,100,FO,1570318151,83,61.47,-6.81,283.323,16.15
203,Puro,14,PH,1570318152,75,13.13,123.76,300.913,3.432
204,Te Anau,44,NZ,1570318154,71,-45.41,167.72,279.963,0.95
205,Kayes,31,ML,1570318155,53,14.44,-11.44,302.923,3.52
206,Vardo,90,US,1570318156,59,39.62,-77.74,289.82,3.1
207,Tsuruga,89,JP,1570318158,81,35.64,136.07,295.37,3.1
208,Moron,100,HT,1570317584,81,18.56,-74.26,300.123,3.73
209,Aklavik,40,CA,1570318160,41,68.22,-135.01,278.15,4.1
210,Comodoro Rivadavia,0,AR,1570317614,54,-45.87,-67.48,287.15,1.5
211,Inhambane,0,MZ,1570318163,95,-23.87,35.38,290.833,1.68
212,Caravelas,0,BR,1570318164,81,-17.73,-39.27,296.643,5.1
213,Tiarei,20,PF,1570318166,74,-17.53,-149.33,301.15,7.7
214,Roebourne,0,AU,1570317682,10,-20.77,117.15,306.743,7.136
215,Porto Novo,0,BR,1570318168,50,-23.68,-45.44,299.15,4.6
216,Saskylakh,60,RU,1570318169,92,71.97,114.09,262.973,1.5
217,Bella Vista,64,AR,1570318171,45,-27.03,-65.31,293.15,2.1
218,Olinda,67,AU,1570318172,43,-37.84,145.39,298.71,9.8
219,Bonavista,98,CA,1570317627,80,48.65,-53.11,277.59,6.26
220,Waipawa,78,NZ,1570318175,66,-39.94,176.59,284.26,2.68
221,La Ronge,90,CA,1570318176,93,55.1,-105.3,281.15,4.6
222,Punta de Piedra,100,VE,1570318177,87,7.62,-71.49,297.403,1.15
223,Nanortalik,68,GL,1570318179,80,60.14,-45.24,278.333,1.81
224,Ayan,27,IR,1570318180,46,38.23,44.7,281.563,2.33
225,Pangnirtung,20,CA,1570317586,50,66.15,-65.72,271.15,6.7
226,Zhezkazgan,0,KZ,1570318183,29,47.8,67.71,281.713,3.44
227,Labytnangi,100,RU,1570318184,99,66.66,66.39,274.963,5.001
228,Constitucion,75,MX,1570317535,29,23.99,-104.67,298.71,4.6
229,San Cristobal,77,HN,1570318187,87,14.68,-86.92,295.013,1.843
230,Natchitoches,1,US,1570318189,46,31.76,-93.09,306.15,1.03
231,Inza,100,RU,1570318190,95,53.86,46.36,281.893,3.62
232,Yulara,0,AU,1570317618,17,-25.24,130.99,301.15,3.6
233,Emba,75,CY,1570318192,69,34.81,32.42,298.15,6.2
234,Korsakov,0,RU,1570318194,93,46.63,142.78,278.15,6.006
235,Tikaitnagar,47,IN,1570317989,64,26.95,81.58,295.773,0.77
236,Port Keats,11,AU,1570318196,61,-14.25,129.55,302.123,3.71
237,Iwaki,75,JP,1570318198,100,37.05,140.89,291.48,3.1
238,Alghero,0,IT,1570318199,68,40.56,8.32,294.15,2.6
239,Zhigansk,100,RU,1570318200,72,66.77,123.37,271.363,7.994
240,Pilar do Sul,24,BR,1570318202,92,-23.81,-47.72,290.303,5.79
241,Waslala,86,NI,1570318203,92,13.33,-85.37,295.433,0.66
242,Gat,97,SN,1570318205,88,14.69,-16.54,301.15,7.0
243,Barkhan,100,PK,1570318206,69,29.9,69.52,289.003,4.41
244,Cabra,53,ES,1570318207,59,37.47,-4.43,293.71,1.0
245,Wahiawa,20,US,1570318209,66,21.5,-158.02,304.15,5.7
246,Sao Gabriel da Cachoeira,72,BR,1570318210,92,-0.13,-67.09,296.583,0.36
247,Namatanai,19,PG,1570317983,78,-3.66,152.44,300.323,4.02
248,Bose,0,IT,1570317620,76,45.46,8.01,287.04,1.5
249,Atambua,0,ID,1570318214,70,-9.11,124.89,298.443,3.12
250,Yeppoon,75,AU,1570318216,53,-23.13,150.74,298.15,1.5
251,Haines Junction,95,CA,1570318217,85,60.75,-137.51,273.653,1.84
252,Santa Rita,40,BR,1570318218,88,-7.13,-34.98,297.15,3.1
253,Itaituba,97,BR,1570318219,97,-4.26,-55.99,295.843,0.95
254,Sovetskiy,83,RU,1570318221,92,56.76,48.47,276.243,2.15
255,Coquimbo,0,CL,1570318222,71,-29.95,-71.34,287.15,5.7
256,Lagos,100,NG,1570317660,94,6.46,3.39,296.863,1.89
257,Puerto Leguizamo,44,CO,1570318225,69,-0.19,-74.78,299.063,0.62
258,Fraserburgh,100,GB,1570318226,93,57.69,-2.02,284.15,6.2
259,Sabzevar,0,IR,1570318228,40,36.21,57.68,280.073,3.16
260,Rocha,92,UY,1570318229,94,-34.48,-54.34,280.733,1.29
261,Road Town,20,VG,1570318224,79,18.42,-64.62,302.15,1.5
262,Cabo San Lucas,20,MX,1570317476,55,22.89,-109.91,304.26,2.1
263,Kijang,40,KR,1570318233,63,35.24,129.21,291.15,5.1
264,Vaitape,12,PF,1570318234,72,-16.52,-151.75,299.753,4.37
265,Hami,0,CN,1570317646,34,42.84,93.51,283.473,1.62
266,Airai,1,TL,1570318237,32,-8.93,125.41,297.963,2.846
267,Klaksvik,93,FO,1570317701,81,62.23,-6.59,283.15,14.9
268,Broome,54,GB,1570317640,81,52.47,1.45,286.48,2.6
269,Hayden,75,US,1570318240,44,47.77,-116.79,287.59,5.1
270,Batagay-Alyta,100,RU,1570318242,41,67.8,130.41,263.173,0.827
271,Calabozo,83,VE,1570318243,85,8.92,-67.43,298.493,1.74
272,Tibiri,93,NE,1570318245,58,13.57,7.05,300.183,4.28
273,Nouadhibou,0,MR,1570318246,88,20.93,-17.03,293.15,7.2
274,Havre-Saint-Pierre,20,CA,1570317570,45,50.23,-63.6,281.15,3.6
275,Mount Isa,35,AU,1570318248,13,-20.73,139.49,300.15,6.7
276,Campbell River,20,CA,1570318126,54,50.02,-125.24,288.15,2.1
277,Goulburn,100,AU,1570318252,63,-34.75,149.72,293.15,6.649
278,Miandrivazo,51,MG,1570318253,61,-19.53,45.46,297.003,1.66
279,Lerwick,35,GB,1570318087,76,60.15,-1.15,283.15,11.8
280,Namibe,51,AO,1570318255,82,-15.19,12.15,292.453,6.24
281,Apache Junction,1,US,1570318257,21,33.41,-111.55,308.15,2.1
282,Zemio,100,CF,1570318258,96,5.02,25.13,294.083,0.89
283,Victoria,75,BN,1570318260,78,5.28,115.24,301.15,2.6
284,Cayenne,0,GF,1570318261,94,4.94,-52.33,298.15,2.43
285,Orchard Homes,90,US,1570318262,50,46.86,-114.05,285.15,5.1
286,Calbe,40,DE,1570318264,93,51.9,11.78,280.37,1.5
287,Beloha,0,MG,1570318265,62,-25.17,45.06,296.833,5.6
288,Los Llanos de Aridane,40,ES,1570318266,78,28.66,-17.92,296.15,7.7
289,Ancud,90,CL,1570318268,76,-41.87,-73.83,282.15,4.1
290,Palmares do Sul,100,BR,1570318269,96,-30.26,-50.51,289.82,3.126
291,Porosozero,11,RU,1570318270,96,62.72,32.71,268.103,1.77
292,Chifeng,100,CN,1570318272,38,42.27,118.96,280.993,2.19
293,Miri,96,NG,1570318273,88,10.31,9.75,294.203,1.37
294,Kraluv Dvur,90,CZ,1570318275,100,49.95,14.03,280.93,3.1
295,Lompoc,1,US,1570318277,38,34.64,-120.46,298.71,5.1
296,Mujiayingzi,100,CN,1570318278,47,42.12,118.78,279.893,2.45
297,Vigrestad,0,NO,1570318280,69,58.57,5.7,280.37,3.6
298,Chinsali,0,ZM,1570318281,69,-10.55,32.07,292.043,2.93
299,Caledon East,75,CA,1570318190,71,43.87,-79.87,286.48,5.1
300,Severo-Kurilsk,100,RU,1570318283,93,50.68,156.12,279.153,13.09
301,Tsaratanana,34,MG,1570318285,75,-16.8,47.65,292.503,4.87
302,Libreville,40,GA,1570318287,83,0.39,9.45,300.15,3.6
303,Bar Harbor,1,US,1570318250,75,44.39,-68.2,281.48,1.2
304,Kodiak,1,US,1570318290,46,39.95,-94.76,294.15,5.7
305,Mbanza-Ngungu,98,CD,1570318292,73,-5.25,14.87,298.823,2.26
306,Bowen,23,AU,1570318293,57,-20.01,148.25,299.82,3.6
307,Ilhabela,0,BR,1570318221,85,-23.78,-45.36,295.923,1.52
308,Kamenka,16,MD,1570318297,91,48.03,28.7,275.93,1.24
309,Sisimiut,100,GL,1570318072,96,66.94,-53.67,274.083,13.53
310,Norman Wells,75,CA,1570318299,81,65.28,-126.83,279.15,3.1
311,Chara,20,GR,1570318301,76,39.42,22.43,291.15,2.1
312,Golden,1,US,1570318302,25,39.76,-105.22,293.15,1.5
313,Luena,78,AO,1570318304,85,-11.78,19.91,289.353,0.18
314,Beziers,0,FR,1570318305,67,43.35,3.22,290.37,3.6
315,Mount Gambier,90,AU,1570318307,93,-37.83,140.78,287.15,7.7
316,Avera,90,US,1570318308,69,33.19,-82.53,299.15,4.1
317,Tuim,75,RU,1570318310,88,54.34,89.93,279.613,2.577
318,Okhotsk,1,RU,1570318311,46,59.36,143.24,271.573,6.53
319,Okha,99,RU,1570318312,64,53.59,142.95,279.263,4.26
320,Ust-Kuyga,100,RU,1570318314,81,70.0,135.55,265.983,2.07
321,Tarragona,90,ES,1570318316,88,41.12,1.25,294.15,2.1
322,Hay River,75,CA,1570318317,81,60.82,-115.79,282.15,2.6
323,Hilo,1,US,1570318319,55,19.71,-155.08,304.15,4.1
324,Tazovskiy,100,RU,1570318320,87,67.47,78.7,274.233,5.84
325,Sur,45,OM,1570318321,55,22.57,59.53,300.703,7.83
326,Bilibino,73,RU,1570318323,93,68.06,166.44,262.323,2.82
327,Richards Bay,2,ZA,1570318324,88,-28.77,32.06,294.253,9.72
328,Saquarema,0,BR,1570318325,69,-22.93,-42.51,300.15,2.1
329,Madingou,66,CG,1570318327,81,-4.17,13.56,297.923,1.4
330,Torbay,40,CA,1570318329,86,47.66,-52.73,278.15,5.7
331,Kavaratti,76,IN,1570318330,67,10.57,72.64,300.743,0.39
332,Chapais,1,CA,1570318332,86,49.78,-74.86,277.15,1.0
333,Boquira,75,BR,1570318333,44,-12.82,-42.73,298.873,3.23
334,Male,100,UA,1570318335,86,50.74,33.7,280.823,5.29
335,Fortuna,20,US,1570318336,52,40.6,-124.16,294.26,6.2
336,Plouzane,63,FR,1570318338,93,48.38,-4.62,289.15,6.7
337,Adrar,0,DZ,1570318339,20,27.87,-0.29,297.15,6.7
338,Galle,100,GN,1570318340,96,10.08,-12.83,294.763,0.49
339,Bourail,73,NC,1570318342,47,-21.57,165.5,298.813,0.33
340,Berlevag,100,NO,1570318343,86,70.86,29.09,278.663,7.66
341,Lagunas,77,PE,1570318345,63,-5.23,-75.68,300.523,0.87
342,Colac,71,AU,1570318346,84,-38.34,143.59,292.04,6.26
343,Russell,1,US,1570318076,37,38.9,-98.86,293.71,3.1
344,Dvorichna,100,UA,1570318349,94,49.85,37.68,284.133,4.65
345,Srednekolymsk,10,RU,1570318350,75,67.46,153.71,267.483,1.76
346,Ulladulla,100,AU,1570318352,82,-35.36,150.48,290.37,3.1
347,Rumphi,16,MW,1570318353,79,-11.02,33.86,290.513,1.93
348,Chokurdakh,99,RU,1570318354,84,70.62,147.9,266.623,5.33
349,Mayumba,97,GA,1570318356,89,-3.44,10.65,297.953,5.18
350,Baraboo,90,US,1570318357,100,43.47,-89.74,286.15,5.1
351,Cabinda,75,AO,1570318359,88,-5.56,12.19,298.183,8.02
352,Soure,37,PT,1570318360,93,40.06,-8.63,288.71,1.5
353,Ushumun,59,RU,1570318362,66,52.78,126.54,278.273,2.79
354,San Pedro,0,AR,1570318363,63,-33.68,-59.66,284.82,1.43
355,Mabaruma,100,GY,1570318365,96,8.2,-59.78,296.873,1.15
356,Mersing,16,MY,1570318366,87,2.43,103.84,297.453,0.64
357,Babati,100,TZ,1570318367,96,-4.21,35.75,286.013,3.9
358,Kortkeros,53,RU,1570318369,100,61.81,51.56,272.15,3.0
359,Nicoya,75,CR,1570318321,94,10.15,-85.45,298.15,1.0
360,Podgornoye,91,RU,1570318372,98,57.79,82.64,281.383,1.876
361,Shumskiy,100,RU,1570318373,96,54.83,99.13,276.663,2.324
362,Fukue,20,JP,1570318374,64,35.03,136.69,297.15,9.8
363,Bara,89,NG,1570318376,86,10.41,10.6,295.803,1.68
364,Escarcega,93,MX,1570318377,96,18.61,-90.75,297.863,1.311
365,Terney,0,RU,1570318378,45,45.05,136.61,281.863,1.95
366,Oistins,20,BB,1570318143,78,13.07,-59.53,301.15,5.1
367,Wanning,75,AT,1570318381,87,48.64,13.53,280.37,2.6
368,Shima,20,JP,1570318382,64,34.34,136.82,297.15,9.8
369,Huari,81,PE,1570318384,78,-9.35,-77.17,280.373,1.721
370,Chulucanas,74,PE,1570318385,71,-5.1,-80.16,290.553,1.812
371,Ardmore,90,US,1570318147,58,34.99,-86.85,306.15,8.7
372,Solnechnyy,54,RU,1570318388,47,50.72,136.64,281.693,1.19
373,Biak,38,ID,1570318390,79,-0.91,122.88,299.693,5.701
374,Axim,72,GH,1570318391,97,4.87,-2.24,296.173,1.349
375,Luderitz,0,NA,1570318392,87,-26.65,15.16,286.15,3.6
376,Antsohihy,0,MG,1570318394,65,-14.88,47.99,299.523,7.28
377,Port Macquarie,73,AU,1570318219,60,-31.43,152.91,294.82,5.1
378,Katsuura,75,JP,1570318396,73,33.93,134.5,296.15,6.2
379,Saint Anthony,40,US,1570318398,52,43.97,-111.68,282.15,3.1
380,Carbonia,12,IT,1570318399,82,39.17,8.53,292.59,2.6
381,Dingle,77,PH,1570318401,83,11.0,122.67,299.823,3.1
382,Jinchang,100,CN,1570318402,85,38.52,102.19,277.473,1.73
383,Kitami,40,JP,1570318403,87,43.8,143.9,282.15,2.1
384,Lata,98,IN,1570318405,49,30.78,78.62,273.093,1.598
385,Keuruu,75,FI,1570318406,92,62.26,24.71,273.15,1.5
386,Yermakovskoye,90,RU,1570318408,83,53.28,92.4,280.713,2.588
387,Roald,0,NO,1570318409,93,62.58,6.12,275.15,3.1
388,Port-Gentil,75,GA,1570318410,88,-0.72,8.78,299.15,5.7
389,Coxim,61,BR,1570318412,79,-18.5,-54.75,297.063,3.32
390,Nara,75,JP,1570318413,77,34.68,135.8,296.15,0.5
391,Durazno,38,UY,1570318346,75,-33.38,-56.52,281.983,2.6
392,Manggar,94,ID,1570318415,75,-2.88,108.27,299.573,2.92
393,Jalor,0,IN,1570318417,69,25.35,72.62,299.203,2.35
394,Ketchikan,75,US,1570318144,87,55.34,-131.65,285.15,7.7
395,Ormara,37,PK,1570318420,80,25.21,64.64,298.023,0.38
396,Imeni Poliny Osipenko,100,RU,1570318421,56,52.42,136.49,278.763,1.81
397,Skibbereen,40,IE,1570318422,87,51.55,-9.27,283.15,4.6
398,Maniitsoq,94,GL,1570318424,86,65.42,-52.9,275.023,17.86
399,Mulchen,95,CL,1570318425,85,-37.72,-72.23,280.213,1.54
400,Sorong,48,ID,1570318427,76,-0.86,131.25,300.973,2.71
401,Gushikawa,1,JP,1570318428,83,26.35,127.87,300.15,3.1
402,Mbigou,63,GA,1570318429,99,-1.9,11.91,294.703,0.74
403,Novo Aripuana,4,BR,1570318431,67,-5.12,-60.38,299.383,0.504
404,Ostrovnoy,100,RU,1570318432,80,68.05,39.51,274.253,7.67
405,Novopokrovka,90,UA,1570318433,100,49.84,36.56,281.15,6.0
406,Kilindoni,0,TZ,1570318435,79,-7.91,39.67,299.003,6.233
407,Ahipara,89,NZ,1570318436,87,-35.17,173.16,293.71,4.54
408,Akdagmadeni,52,TR,1570318437,58,39.66,35.88,288.273,2.38
409,Jalu,0,LY,1570318439,67,29.03,21.55,293.283,4.94
410,Nyurba,100,RU,1570318440,98,63.29,118.35,274.743,2.41
411,Ust-Tsilma,96,RU,1570318442,94,65.44,52.15,271.723,2.12
412,Talnakh,90,RU,1570318443,95,69.49,88.39,273.15,4.0
413,Hovd,0,NO,1570318445,74,63.83,10.7,275.37,4.1
414,Karla,40,EE,1570318446,56,59.37,24.93,278.15,4.1
415,Hofn,100,IS,1570318448,99,64.25,-15.21,277.323,5.05
416,Beaverlodge,90,CA,1570318449,46,55.21,-119.43,283.15,11.8
417,Hermiston,1,US,1570318451,28,45.84,-119.29,295.15,1.5
418,Lavrentiya,100,RU,1570318452,96,65.58,-170.99,274.073,10.31
419,Srandakan,53,ID,1570318453,84,-7.94,110.25,296.853,2.1
420,Alihe,4,CN,1570318455,61,50.57,123.73,279.063,1.82
421,Lasa,75,CY,1570318456,69,34.92,32.53,298.15,6.2
422,Ambunti,98,PG,1570318457,83,-4.22,142.82,299.143,1.385
423,Abu Samrah,0,SY,1570318459,53,35.3,37.18,291.193,3.12
424,Flinders,94,AU,1570318460,82,-34.58,150.85,293.15,3.1
425,Vao,88,EE,1570318461,77,59.1,26.19,275.873,2.67
426,Mercedes,33,UY,1570318463,80,-33.25,-58.03,282.633,2.199
427,Pavlodar,0,KZ,1570318464,100,52.28,76.96,277.15,2.0
428,Moussoro,99,TD,1570318465,68,13.64,16.49,299.593,5.129
429,Alenquer,60,BR,1570318467,88,-1.95,-54.74,299.15,1.0
430,Bandarbeyla,45,SO,1570318468,79,9.49,50.81,298.063,5.01
431,Devonport,100,AU,1570318469,91,-41.18,146.36,286.48,0.45
432,Kuala Terengganu,75,MY,1570318471,94,5.33,103.14,298.15,1.5
433,Duldurga,100,RU,1570318472,59,50.67,113.59,277.373,5.08
434,Kuppam,99,IN,1570318473,87,12.75,78.34,293.503,1.35
435,Iqaluit,75,CA,1570318475,64,63.75,-68.52,273.15,3.1
436,San Policarpo,21,PH,1570318476,74,12.18,125.51,301.603,3.21
437,Heswall,90,GB,1570318477,100,53.33,-3.1,286.15,6.2
438,Dunedin,68,NZ,1570318219,41,-45.87,170.5,286.48,5.81
439,Sunbury,40,AU,1570318480,35,-37.58,144.73,298.71,9.3
440,Zakharovo,100,RU,1570318481,91,54.37,39.28,278.253,7.1
441,Shitanjing,100,CN,1570318483,76,39.23,106.34,279.26,1.34
442,Bambous Virieux,75,MU,1570318484,94,-20.34,57.76,295.15,2.6
443,Sokoto,69,NG,1570318485,68,13.06,5.24,300.503,3.99
444,Iquique,90,CL,1570318487,72,-20.22,-70.14,288.15,6.2
445,Dalvik,0,SE,1570318488,100,57.79,14.13,270.93,0.7
446,Tautira,20,PF,1570318490,74,-17.73,-149.15,301.15,7.7
447,Ambon,90,FR,1570318491,100,47.55,-2.56,289.26,3.1
448,Sars,95,RU,1570318492,56,56.55,57.14,282.483,4.59
449,Port Hardy,40,CA,1570318205,82,50.7,-127.42,286.15,2.1
450,Camacha,40,PT,1570318495,78,33.08,-16.33,296.15,3.1
451,Rantepao,73,ID,1570318496,85,-2.97,119.9,292.183,1.14
452,Nurobod,0,UZ,1570318498,76,40.91,69.8,286.15,1.0
453,Lebanon,1,US,1570318261,50,40.34,-76.42,287.59,2.1
454,Kuusamo,90,FI,1570318500,95,65.96,29.19,274.15,3.1
455,Westport,1,US,1570318263,47,41.14,-73.36,286.48,2.1
456,Lethem,23,GY,1570318503,49,3.38,-59.8,303.793,4.42
457,Benguela,100,AO,1570318504,90,-12.58,13.4,295.423,4.29
458,Estelle,0,FR,1570318506,63,43.97,3.47,290.15,3.6
459,Chernyshevskiy,100,RU,1570318507,98,63.01,112.47,274.653,3.62
460,Harper,1,US,1570318508,31,30.3,-99.24,306.15,2.1
461,Pachino,25,IT,1570318510,88,36.72,15.09,290.15,1.0
462,Havoysund,75,NO,1570318512,86,71.0,24.66,278.15,11.3
463,Necochea,0,AR,1570318513,92,-38.55,-58.74,280.93,1.34
464,Egvekinot,78,RU,1570318514,79,66.32,-179.17,268.623,3.45
465,Maxixe,0,MZ,1570318516,79,-23.86,35.35,294.913,3.77
466,Bosaso,0,SO,1570318517,71,11.28,49.18,302.393,2.788
467,Darnah,0,LY,1570318518,71,32.77,22.64,297.103,8.24
468,Lincoln,1,US,1570318520,32,40.8,-96.67,293.15,5.7
469,Palmas,75,BR,1570318521,94,-10.18,-48.33,296.15,1.0
470,Half Moon Bay,1,US,1570318522,21,37.46,-122.43,300.93,6.2
471,Naze,100,NG,1570318524,97,5.43,7.07,296.283,0.94
472,Vicosa,41,BR,1570318525,37,-20.75,-42.88,296.48,3.57
473,Roswell,1,US,1570318441,39,33.39,-104.52,302.59,2.1
474,Miraflores,0,PE,1570318528,50,-16.39,-71.52,286.15,4.1
475,Canoa,20,CU,1570318529,78,22.56,-79.83,299.15,3.6
476,Cap Malheureux,75,MU,1570318531,94,-19.98,57.61,295.15,2.6
477,Robstown,1,US,1570318533,62,27.79,-97.67,305.15,4.6
478,Matehuala,97,MX,1570318534,43,23.65,-100.64,295.683,2.85
479,Gorontalo,0,ID,1570318535,72,0.54,123.06,300.393,0.58
480,Pizarro,93,CO,1570318537,86,4.95,-77.37,299.053,4.358
481,Chitungwiza,0,ZW,1570318538,52,-18.01,31.07,291.15,3.6
482,Coihueco,0,CL,1570318539,58,-36.63,-71.83,286.15,3.1
483,Kysyl-Syr,100,RU,1570318541,93,63.9,122.77,270.763,5.672
484,Zaysan,0,KZ,1570318542,57,47.47,84.87,277.533,1.15
485,Launceston,40,AU,1570318543,93,-41.43,147.14,286.48,4.6
486,Bridlington,100,GB,1570318545,87,54.08,-0.19,285.37,4.6
487,Yago,40,MX,1570318546,61,21.83,-105.07,300.15,4.1
488,Yar-Sale,100,RU,1570318548,97,66.83,70.83,276.653,7.538
489,Katangli,90,RU,1570318549,60,51.71,143.23,280.033,5.14
490,Temir,0,KZ,1570318550,31,49.14,57.13,282.163,3.48
491,Nabire,94,ID,1570318552,87,-3.36,135.5,298.113,1.14
492,Zyryanka,0,RU,1570318553,60,65.73,150.89,268.783,5.74
493,Abnub,0,EG,1570318554,47,27.27,31.15,298.15,4.6
494,Brae,35,GB,1570318556,76,60.4,-1.35,283.15,10.3
495,Honningsvag,100,NO,1570318557,76,70.98,25.97,279.383,11.52
496,Armidale,25,AU,1570318559,36,-30.51,151.67,293.71,1.34
497,Khani,40,GE,1570318560,93,41.96,42.96,292.15,2.1
498,Jingdezhen,32,CN,1570318561,76,29.29,117.2,293.653,1.99
499,Kyela,13,MW,1570318562,92,-9.6,33.87,289.513,1.42
500,Port-Cartier,20,CA,1570318564,52,50.03,-66.88,280.15,4.1
501,Chimbote,76,PE,1570318565,86,-9.08,-78.59,288.863,3.514
502,Havelock,1,US,1570318477,56,34.88,-76.9,296.48,4.1
503,Palmas Bellas,40,PA,1570318568,83,9.23,-80.09,301.15,1.5
504,Garissa,3,KE,1570318569,76,-0.46,39.64,297.323,6.58
505,Anadyr,40,RU,1570318531,74,64.73,177.51,271.15,11.0
506,Praia da Vitoria,40,PT,1570318572,88,38.73,-27.07,296.15,9.71
507,Biltine,93,TD,1570318573,58,14.53,20.93,300.743,3.59
508,Galway,20,IE,1570318508,87,53.27,-9.05,285.37,5.1
509,Mtwara,25,TZ,1570318576,97,-10.28,40.18,293.673,0.78
510,Iralaya,75,HN,1570318577,79,15.0,-83.23,304.15,5.1
511,Fuling,99,CN,1570318579,94,29.71,107.39,293.483,2.27
512,Skeldon,8,GY,1570318580,85,5.88,-57.13,297.913,1.66
513,Sechura,30,PE,1570318582,86,-5.56,-80.82,290.503,7.725
514,Mangrol,0,IN,1570318555,77,25.33,76.51,296.813,0.99
515,Rayagada,48,IN,1570318585,93,19.17,83.42,292.773,0.69
516,Kahului,40,US,1570318516,55,20.89,-156.47,304.15,6.7
517,Faya,20,SA,1570318588,37,18.39,42.45,293.15,0.52
518,Sao Felix do Xingu,31,BR,1570318589,88,-6.64,-51.99,296.073,0.917
519,Moose Factory,40,CA,1570318591,61,51.26,-80.61,283.15,3.6
520,Saint-Pierre,75,FR,1570318592,100,48.95,4.24,286.48,3.6
521,Tuatapere,100,NZ,1570318593,68,-46.13,167.69,284.82,2.68
522,Santiago,74,PH,1570318523,90,16.69,121.54,297.503,0.73
523,Benton Harbor,90,US,1570318596,93,42.12,-86.45,288.71,3.1
524,Salta,75,AR,1570318437,71,-24.79,-65.41,289.15,1.0
525,Madison,90,US,1570318598,87,43.07,-89.38,286.48,7.2
526,Calvinia,0,ZA,1570318600,48,-31.47,19.78,285.013,3.432
527,Kon Tum,100,VN,1570318601,93,14.36,108.0,292.563,0.73
528,Pavilosta,100,LV,1570318603,100,56.89,21.19,274.15,5.73
529,Salamiyah,0,SY,1570318604,66,35.01,37.05,289.463,2.656
530,Port Lincoln,27,AU,1570318606,87,-34.72,135.86,287.523,7.05
531,Makubetsu,75,JP,1570318607,76,42.84,143.34,282.15,0.5
532,Athabasca,93,CA,1570318609,75,54.72,-113.29,281.243,3.69
533,Kazerun,0,IR,1570318610,30,29.62,51.65,291.113,0.39
